{"statename":{},"distance":"0.058","elevation":"990","osmtags":{"wikipedia":"es:Tardelcuende (Soria)","wikidata":"Q832238","source":"BDLL25, EGRN, Instituto Geográfico Nacional","population":"512","idee_name":"Tardelcuende","ine_municipio":"42181","is_in":"Soria, Castilla y León, Spain","is_in_region":"Castilla y León","name":"Tardelcuende","is_in_country":"Spain","is_in_province":"Soria","admin_level":"8","population_date":"2009","boundary":"administrative","type":"boundary"},"state":"ES","latt":"41.59377","city":"Cascajosa","prov":"ES","intersection":{"distance":"0.061","xlat":"41.59378","xlon":"-2.648665","street2":"Calle Resineros","street1":"CR OSONILLA"},"geocode":"SORIA-CZGST","geonumber":"3159722609959","country":"Spain","stnumber":"54","staddress":"CR OSONILLA","inlatt":"41.59423","alt":{"loc":[{"staddress":"CR OSONILLA","stnumber":"54","postal":"42294","latt":"41.59377","city":"Cascajosa","prov":"ES","longt":"-2.64875","class":{}},{"staddress":"CR OSONILLA","stnumber":"54","postal":"42294","latt":"41.59377","city":"Tardelcuende","prov":"ES","longt":"-2.64875","class":{}},{"staddress":"Osonilla","stnumber":"54","postal":{},"latt":"41.59377","city":"Tardelcuende","prov":"ES","longt":"-2.64875","class":{}},{"staddress":"Calle Camino Alto de Osonilla","stnumber":"1","postal":{},"dist":"0.244","latt":"41.59505","city":"Tardelcuende","prov":"ES","longt":"-2.64636","class":{}},{"staddress":"Calle Camino Alto de Osonilla","stnumber":"1","postal":{},"dist":"0.307","latt":"41.59505","city":"Tardelcuende","prov":"ES","longt":"-2.64555","class":{}},{"staddress":"Calle Resineros","stnumber":"1","postal":{},"dist":"0.134","latt":"41.59359","city":"Tardelcuende","prov":"ES","longt":"-2.64772","class":{}},{"staddress":"Carretera de Osonilla","stnumber":"1","postal":{},"dist":"0.310","latt":"41.59368","city":"Tardelcuende","prov":"ES","longt":"-2.64542","class":{}},{"staddress":"Carretera de Osonilla","stnumber":"1","postal":{},"dist":"0.285","latt":"41.59366","city":"Tardelcuende","prov":"ES","longt":"-2.64574","class":{}},{"staddress":"Carretera de Osonilla","stnumber":"1","postal":{},"dist":"0.065","latt":"41.59403","city":"Tardelcuende","prov":"ES","longt":"-2.64982","class":{}},{"staddress":"Carretera de Osonilla","stnumber":"1","postal":{},"dist":"0.237","latt":"41.59356","city":"Tardelcuende","prov":"ES","longt":"-2.64638","class":{}},{"staddress":"Calle Camino Alto de Osonilla","stnumber":"1","postal":{},"dist":"0.196","latt":"41.59499","city":"Tardelcuende","prov":"ES","longt":"-2.64695","class":{}},{"staddress":"Carretera de Osonilla","stnumber":"1","postal":{},"dist":"0.110","latt":"41.59338","city":"Tardelcuende","prov":"ES","longt":"-2.6484","class":{}},{"staddress":"Carretera de Osonilla","stnumber":"1","postal":{},"dist":"0.150","latt":"41.59324","city":"Tardelcuende","prov":"ES","longt":"-2.64786","class":{}},{"staddress":"Carretera de Cascajosa","stnumber":"1","postal":{},"dist":"0.170","latt":"41.59319","city":"Tardelcuende","prov":"ES","longt":"-2.64758","class":{}},{"staddress":"Carretera de Osonilla","stnumber":"1","postal":{},"dist":"0.059","latt":"41.59398","city":"Tardelcuende","prov":"ES","longt":"-2.6497","class":{}},{"staddress":"Calle Camino Alto de Osonilla","stnumber":"1","postal":{},"dist":"0.187","latt":"41.59497","city":"Tardelcuende","prov":"ES","longt":"-2.64706","class":{}},{"staddress":"Calle Camino Alto de Osonilla","stnumber":"1","postal":{},"dist":"0.286","latt":"41.59507","city":"Tardelcuende","prov":"ES","longt":"-2.64583","class":{}},{"staddress":"Calle Manadizo","stnumber":"1","postal":{},"dist":"0.233","latt":"41.59504","city":"Tardelcuende","prov":"ES","longt":"-2.6465","class":{}},{"staddress":"Calle Manadizo","stnumber":"1","postal":{},"dist":"0.218","latt":"41.59427","city":"Tardelcuende","prov":"ES","longt":"-2.64646","class":{}},{"staddress":"Lomas Las","stnumber":"18","postal":{},"dist":"0.380","latt":"41.59287","city":"Tardelcuende","prov":"ES","longt":"-2.64489","class":{}},{"staddress":"Carretera de Cascajosa","stnumber":"1","postal":{},"dist":"0.195","latt":"41.5926","city":"Tardelcuende","prov":"ES","longt":"-2.64994","class":{}},{"staddress":"Carretera de Cascajosa","stnumber":"1","postal":{},"dist":"0.161","latt":"41.59324","city":"Tardelcuende","prov":"ES","longt":"-2.64767","class":{}},{"staddress":"Calle Camino Alto de Osonilla","stnumber":"1","postal":{},"dist":"0.215","latt":"41.59501","city":"Tardelcuende","prov":"ES","longt":"-2.64671","class":{}},{"staddress":"Calle Resineros","stnumber":"1","postal":{},"dist":"0.067","latt":"41.59378","city":"Tardelcuende","prov":"ES","longt":"-2.64855","class":{}},{"staddress":"Carretera de Osonilla","stnumber":"1","postal":{},"dist":"0.193","latt":"41.59328","city":"Tardelcuende","prov":"ES","longt":"-2.64714","class":{}},{"staddress":"Calle Camino Alto de Osonilla","stnumber":"1","postal":{},"dist":"0.327","latt":"41.59503","city":"Tardelcuende","prov":"ES","longt":"-2.64529","class":{}},{"staddress":"Calle Camino Alto de Osonilla","stnumber":"1","postal":{},"dist":"0.256","latt":"41.59506","city":"Tardelcuende","prov":"ES","longt":"-2.64621","class":{}},{"staddress":"Calle Camino Alto de Osonilla","stnumber":"1","postal":{},"dist":"0.117","latt":"41.59484","city":"Tardelcuende","prov":"ES","longt":"-2.64793","class":{}},{"staddress":"Calle Resineros","stnumber":"1","postal":{},"dist":"0.064","latt":"41.59379","city":"Tardelcuende","prov":"ES","longt":"-2.64858","class":{}},{"staddress":"CL IGLESIA","stnumber":"13","postal":"42294","dist":"0.355","latt":"41.59472","city":"Tardelcuende","prov":"ES","longt":"-2.64486","class":{}}]},"timezone":"Europe/Madrid","region":"Cascajosa, ES","postal":"42294","longt":"-2.64875","remaining_credits":{},"confidence":"0.9","inlongt":"-2.64908","class":{},"adminareas":{"admin7":{"wikipedia":"es:Comarca de Soria","wikidata":"Q2352336","is_in_continent":"Europe","is_in":"Soria, Castile and Léon, Spain, EU","is_in_region":"Castilla y León","name":"Comarca de Soria","is_in_country_code":"ES","is_in_country":"Spain","admin_level":"7","level":"7","boundary":"administrative","type":"boundary","name_el":"Κομάρκα της Σόριας"},"admin6":{"wikipedia":"es:Provincia de Soria","source":"BDLL25, EGRN, Instituto Geográfico Nacional","name_pt":"Sória","is_in_region":"Castilla y León","addr_country":"ES","official_name_pt":"Província de Sória","is_in_country_code":"ES","name_be":"Сорыя","boundary":"administrative","name_el":"Σόρια","wikidata":"Q55276","is_in_continent":"Europe","is_in_region_code":"07","is_in":"Europe, Spain, Castilla y León","name":"Soria","ISO3166_2":"ES-SO","official_name":"Provincia de Soria","name_es":"Soria","name_ca":"Sòria","is_in_country":"Spain","admin_level":"6","ine_provincia":"42","level":"6","name_ar":"سريا","type":"boundary","official_name_be":"Правінцыя Сорыя"},"admin8":{"wikipedia":"es:Tardelcuende (Soria)","source":"BDLL25, EGRN, Instituto Geográfico Nacional","population":"512","idee_name":"Tardelcuende","ine_municipio":"42181","is_in_region":"Castilla y León","is_in_province":"Soria","boundary":"administrative","wikidata":"Q832238","is_in":"Soria, Castilla y León, Spain","name":"Tardelcuende","is_in_country":"Spain","admin_level":"8","level":"8","population_date":"2009","type":"boundary"}},"altgeocode":"ESTARD-CZGST"}